[
  {
    "name": "West Kildonan Library",
    "lat": 49.936693679286996,
    "lon": -97.12785771842927,
    "type": "library",
    "ward": "Mynarski"
  },
  {
    "name": "Pembina Trail Library",
    "lat": 49.7937804013518,
    "lon": -97.15665127884341,
    "type": "library",
    "ward": "St. Norbert - Seine River"
  },
  {
    "name": "Louis Riel Library",
    "lat": 49.81994650300974,
    "lon": -97.09960424453627,
    "type": "library",
    "ward": "St. Norbert - Seine River"
  },
  {
    "name": "Henderson Library",
    "lat": 49.93668550263019,
    "lon": -97.0959260392081,
    "type": "library",
    "ward": "North Kildonan"
  },
  {
    "name": "Osborne Library",
    "lat": 49.863389777692575,
    "lon": -97.13452604966633,
    "type": "library",
    "ward": "Fort Rouge - East Fort Garry"
  },
  {
    "name": "Millennium Library",
    "lat": 49.89182378570722,
    "lon": -97.14187614976802,
    "type": "library",
    "ward": "Fort Rouge - East Fort Garry"
  },
  {
    "name": "St. James-Assiniboia Library",
    "lat": 49.87795723585326,
    "lon": -97.22164340626925,
    "type": "library",
    "ward": "St. James"
  },
  {
    "name": "St. Vital Library",
    "lat": 49.85181473972052,
    "lon": -97.11346440954682,
    "type": "library",
    "ward": "St. Vital"
  },
  {
    "name": "Fort Garry Library",
    "lat": 49.839539366055085,
    "lon": -97.15138764635704,
    "type": "library",
    "ward": "Fort Rouge - East Fort Garry"
  },
  {
    "name": "Sir William Stephenson Library",
    "lat": 49.93652143804123,
    "lon": -97.1942145991283,
    "type": "library",
    "ward": "Point Douglas"
  },
  {
    "name": "Harvey Smith (West End) Library",
    "lat": 49.89763839832152,
    "lon": -97.18007345495027,
    "type": "library",
    "ward": "Daniel McIntyre"
  },
  {
    "name": "Transcona Library",
    "lat": 49.89611694006839,
    "lon": -97.00353983445305,
    "type": "library",
    "ward": "Transcona"
  },
  {
    "name": "St. John's Library",
    "lat": 49.92557249180167,
    "lon": -97.13320147488882,
    "type": "library",
    "ward": "Mynarski"
  },
  {
    "name": "River Heights Library",
    "lat": 49.863191226032804,
    "lon": -97.18904008294163,
    "type": "library",
    "ward": "River Heights - Fort Garry"
  },
  {
    "name": "Cornish Library",
    "lat": 49.878363095432036,
    "lon": -97.15994198741156,
    "type": "library",
    "ward": "Fort Rouge - East Fort Garry"
  },
  {
    "name": "Westwood Library",
    "lat": 49.878211660499325,
    "lon": -97.30321631208108,
    "type": "library",
    "ward": "Charleswood - Tuxedo - Westwood"
  },
  {
    "name": "Windsor Park Library",
    "lat": 49.861415374499344,
    "lon": -97.08814313576477,
    "type": "library",
    "ward": "St. Boniface"
  },
  {
    "name": "St. Boniface Library",
    "lat": 49.89182061892302,
    "lon": -97.12475262301226,
    "type": "library",
    "ward": "St. Boniface"
  },
  {
    "name": "Munroe Library",
    "lat": 49.91065586054327,
    "lon": -97.08197032143265,
    "type": "library",
    "ward": "Elmwood - East Kildonan"
  },
  {
    "name": "Charleswood Library",
    "lat": 49.85774064434839,
    "lon": -97.28520022923546,
    "type": "library",
    "ward": "Charleswood - Tuxedo - Westwood"
  },
  {
    "name": "Cindy Klassen Recreation Complex Pool",
    "lat": 49.89793299646669,
    "lon": -97.18045396133637,
    "type": "indoor-pool",
    "ward": "Daniel McIntyre"
  },
  {
    "name": "Margaret Grant Pool",
    "lat": 49.78238696043918,
    "lon": -97.15291499036141,
    "type": "indoor-pool",
    "ward": "St. Norbert - Seine River"
  },
  {
    "name": "Bonivital Pool",
    "lat": 49.860261998442994,
    "lon": -97.08810894404209,
    "type": "indoor-pool",
    "ward": "St. Boniface"
  },
  {
    "name": "Bernie Wolfe Pool",
    "lat": 49.89036296405712,
    "lon": -97.04333898153673,
    "type": "indoor-pool",
    "ward": "Transcona"
  },
  {
    "name": "Seven Oaks Pool",
    "lat": 49.95394502261294,
    "lon": -97.17427800758188,
    "type": "indoor-pool",
    "ward": "Old Kildonan"
  },
  {
    "name": "Elmwood Kildonans  Pool",
    "lat": 49.91564402134669,
    "lon": -97.07259799426433,
    "type": "indoor-pool",
    "ward": "Elmwood - East Kildonan"
  },
  {
    "name": "Pan Am Pool",
    "lat": 49.855210022705144,
    "lon": -97.17302998774078,
    "type": "indoor-pool",
    "ward": "River Heights - Fort Garry"
  },
  {
    "name": "St. James Civic Centre Pool",
    "lat": 49.885891775590245,
    "lon": -97.23426092491677,
    "type": "indoor-pool",
    "ward": "St. James"
  },
  {
    "name": "Eldon Ross Pool",
    "lat": 49.921459017278046,
    "lon": -97.19980996016415,
    "type": "indoor-pool",
    "ward": "Point Douglas"
  },
  {
    "name": "Transcona Kinsmen Centennial Pool",
    "lat": 49.90144694087403,
    "lon": -96.99843598987022,
    "type": "indoor-pool",
    "ward": "Transcona"
  },
  {
    "name": "Kinsmen Sherbrook Pool",
    "lat": 49.889995817790364,
    "lon": -97.15853146535703,
    "type": "indoor-pool",
    "ward": "Daniel McIntyre"
  },
  {
    "name": "St. James Assiniboia Centennial Pool",
    "lat": 49.88423270077969,
    "lon": -97.29586461960236,
    "type": "indoor-pool",
    "ward": "St. James"
  },
  {
    "name": "Sergeant Tommy Prince Place Pool",
    "lat": 49.91829398887955,
    "lon": -97.16162403736085,
    "type": "indoor-pool",
    "ward": "Mynarski"
  },
  {
    "name": "Transcona Aquatic Park",
    "lat": 49.90113954310755,
    "lon": -96.99853571817196,
    "type": "outdoor-pool",
    "ward": "Transcona"
  },
  {
    "name": "Norwood Pool",
    "lat": 49.8799595247353,
    "lon": -97.12970971301311,
    "type": "outdoor-pool",
    "ward": "St. Boniface"
  },
  {
    "name": "Happyland Pool",
    "lat": 49.881809626852274,
    "lon": -97.10276926477273,
    "type": "outdoor-pool",
    "ward": "St. Boniface"
  },
  {
    "name": "Freight House Pool",
    "lat": 49.90437896813295,
    "lon": -97.1487653144365,
    "type": "outdoor-pool",
    "ward": "Point Douglas"
  },
  {
    "name": "Westdale Pool",
    "lat": 49.860972486589084,
    "lon": -97.31506617517763,
    "type": "outdoor-pool",
    "ward": "Charleswood - Tuxedo - Westwood"
  },
  {
    "name": "Fort Garry Lion's Pool",
    "lat": 49.84068896935046,
    "lon": -97.15061518580403,
    "type": "outdoor-pool",
    "ward": "Fort Rouge - East Fort Garry"
  },
  {
    "name": "Windsor Park Pool",
    "lat": 49.86244253255012,
    "lon": -97.07280965985346,
    "type": "outdoor-pool",
    "ward": "St. Boniface"
  },
  {
    "name": "Provencher Pool",
    "lat": 49.891344215683084,
    "lon": -97.11765725097992,
    "type": "outdoor-pool",
    "ward": "St. Boniface"
  },
  {
    "name": "Kildonan Park Pool",
    "lat": 49.942411517492374,
    "lon": -97.10280240774983,
    "type": "outdoor-pool",
    "ward": "Mynarski"
  },
  {
    "name": "St. Vital Pool",
    "lat": 49.85850686479691,
    "lon": -97.10022737450974,
    "type": "outdoor-pool",
    "ward": "St. Vital"
  }
]