[
  {
    "name": "West Kildonan Library",
    "lat": 49.936693679286996,
    "lon": -97.12785771842927,
    "type": "library",
    "ward": "Mynarski"
  },
  {
    "name": "Pembina Trail Library",
    "lat": 49.7937804013518,
    "lon": -97.15665127884341,
    "type": "library",
    "ward": "St. Norbert - Seine River"
  },
  {
    "name": "Louis Riel Library",
    "lat": 49.81994650300974,
    "lon": -97.09960424453627,
    "type": "library",
    "ward": "St. Norbert - Seine River"
  },
  {
    "name": "Henderson Library",
    "lat": 49.93668550263019,
    "lon": -97.0959260392081,
    "type": "library",
    "ward": "North Kildonan"
  },
  {
    "name": "Osborne Library",
    "lat": 49.863389777692575,
    "lon": -97.13452604966633,
    "type": "library",
    "ward": "Fort Rouge - East Fort Garry"
  },
  {
    "name": "Millennium Library",
    "lat": 49.89182378570722,
    "lon": -97.14187614976802,
    "type": "library",
    "ward": "Fort Rouge - East Fort Garry"
  },
  {
    "name": "St. James-Assiniboia Library",
    "lat": 49.87795723585326,
    "lon": -97.22164340626925,
    "type": "library",
    "ward": "St. James"
  },
  {
    "name": "St. Vital Library",
    "lat": 49.85181473972052,
    "lon": -97.11346440954682,
    "type": "library",
    "ward": "St. Vital"
  },
  {
    "name": "Fort Garry Library",
    "lat": 49.839539366055085,
    "lon": -97.15138764635704,
    "type": "library",
    "ward": "Fort Rouge - East Fort Garry"
  },
  {
    "name": "Sir William Stephenson Library",
    "lat": 49.93652143804123,
    "lon": -97.1942145991283,
    "type": "library",
    "ward": "Point Douglas"
  },
  {
    "name": "Harvey Smith (West End) Library",
    "lat": 49.89763839832152,
    "lon": -97.18007345495027,
    "type": "library",
    "ward": "Daniel McIntyre"
  },
  {
    "name": "Transcona Library",
    "lat": 49.89611694006839,
    "lon": -97.00353983445305,
    "type": "library",
    "ward": "Transcona"
  },
  {
    "name": "St. John's Library",
    "lat": 49.92557249180167,
    "lon": -97.13320147488882,
    "type": "library",
    "ward": "Mynarski"
  },
  {
    "name": "River Heights Library",
    "lat": 49.863191226032804,
    "lon": -97.18904008294163,
    "type": "library",
    "ward": "River Heights - Fort Garry"
  },
  {
    "name": "Cornish Library",
    "lat": 49.878363095432036,
    "lon": -97.15994198741156,
    "type": "library",
    "ward": "Fort Rouge - East Fort Garry"
  },
  {
    "name": "Westwood Library",
    "lat": 49.878211660499325,
    "lon": -97.30321631208108,
    "type": "library",
    "ward": "Charleswood - Tuxedo - Westwood"
  },
  {
    "name": "Windsor Park Library",
    "lat": 49.861415374499344,
    "lon": -97.08814313576477,
    "type": "library",
    "ward": "St. Boniface"
  },
  {
    "name": "St. Boniface Library",
    "lat": 49.89182061892302,
    "lon": -97.12475262301226,
    "type": "library",
    "ward": "St. Boniface"
  },
  {
    "name": "Munroe Library",
    "lat": 49.91065586054327,
    "lon": -97.08197032143265,
    "type": "library",
    "ward": "Elmwood - East Kildonan"
  },
  {
    "name": "Charleswood Library",
    "lat": 49.85774064434839,
    "lon": -97.28520022923546,
    "type": "library",
    "ward": "Charleswood - Tuxedo - Westwood"
  },
  {
    "name": "Cindy Klassen Recreation Complex Pool",
    "lat": 49.89793299646669,
    "lon": -97.18045396133637,
    "type": "indoor-pool",
    "ward": "Daniel McIntyre"
  },
  {
    "name": "Margaret Grant Pool",
    "lat": 49.78238696043918,
    "lon": -97.15291499036141,
    "type": "indoor-pool",
    "ward": "St. Norbert - Seine River"
  },
  {
    "name": "Bonivital Pool",
    "lat": 49.860261998442994,
    "lon": -97.08810894404209,
    "type": "indoor-pool",
    "ward": "St. Boniface"
  },
  {
    "name": "Bernie Wolfe Pool",
    "lat": 49.89036296405712,
    "lon": -97.04333898153673,
    "type": "indoor-pool",
    "ward": "Transcona"
  },
  {
    "name": "Seven Oaks Pool",
    "lat": 49.95394502261294,
    "lon": -97.17427800758188,
    "type": "indoor-pool",
    "ward": "Old Kildonan"
  },
  {
    "name": "Elmwood Kildonans  Pool",
    "lat": 49.91564402134669,
    "lon": -97.07259799426433,
    "type": "indoor-pool",
    "ward": "Elmwood - East Kildonan"
  },
  {
    "name": "Pan Am Pool",
    "lat": 49.855210022705144,
    "lon": -97.17302998774078,
    "type": "indoor-pool",
    "ward": "River Heights - Fort Garry"
  },
  {
    "name": "St. James Civic Centre Pool",
    "lat": 49.885891775590245,
    "lon": -97.23426092491677,
    "type": "indoor-pool",
    "ward": "St. James"
  },
  {
    "name": "Eldon Ross Pool",
    "lat": 49.921459017278046,
    "lon": -97.19980996016415,
    "type": "indoor-pool",
    "ward": "Point Douglas"
  },
  {
    "name": "Transcona Kinsmen Centennial Pool",
    "lat": 49.90144694087403,
    "lon": -96.99843598987022,
    "type": "indoor-pool",
    "ward": "Transcona"
  },
  {
    "name": "Kinsmen Sherbrook Pool",
    "lat": 49.889995817790364,
    "lon": -97.15853146535703,
    "type": "indoor-pool",
    "ward": "Daniel McIntyre"
  },
  {
    "name": "St. James Assiniboia Centennial Pool",
    "lat": 49.88423270077969,
    "lon": -97.29586461960236,
    "type": "indoor-pool",
    "ward": "St. James"
  },
  {
    "name": "Sergeant Tommy Prince Place Pool",
    "lat": 49.91829398887955,
    "lon": -97.16162403736085,
    "type": "indoor-pool",
    "ward": "Mynarski"
  },
  {
    "name": "Transcona Aquatic Park",
    "lat": 49.90113954310755,
    "lon": -96.99853571817196,
    "type": "outdoor-pool",
    "ward": "Transcona"
  },
  {
    "name": "Norwood Pool",
    "lat": 49.8799595247353,
    "lon": -97.12970971301311,
    "type": "outdoor-pool",
    "ward": "St. Boniface"
  },
  {
    "name": "Happyland Pool",
    "lat": 49.881809626852274,
    "lon": -97.10276926477273,
    "type": "outdoor-pool",
    "ward": "St. Boniface"
  },
  {
    "name": "Freight House Pool",
    "lat": 49.90437896813295,
    "lon": -97.1487653144365,
    "type": "outdoor-pool",
    "ward": "Point Douglas"
  },
  {
    "name": "Westdale Pool",
    "lat": 49.860972486589084,
    "lon": -97.31506617517763,
    "type": "outdoor-pool",
    "ward": "Charleswood - Tuxedo - Westwood"
  },
  {
    "name": "Fort Garry Lion's Pool",
    "lat": 49.84068896935046,
    "lon": -97.15061518580403,
    "type": "outdoor-pool",
    "ward": "Fort Rouge - East Fort Garry"
  },
  {
    "name": "Windsor Park Pool",
    "lat": 49.86244253255012,
    "lon": -97.07280965985346,
    "type": "outdoor-pool",
    "ward": "St. Boniface"
  },
  {
    "name": "Provencher Pool",
    "lat": 49.891344215683084,
    "lon": -97.11765725097992,
    "type": "outdoor-pool",
    "ward": "St. Boniface"
  },
  {
    "name": "Kildonan Park Pool",
    "lat": 49.942411517492374,
    "lon": -97.10280240774983,
    "type": "outdoor-pool",
    "ward": "Mynarski"
  },
  {
    "name": "St. Vital Pool",
    "lat": 49.85850686479691,
    "lon": -97.10022737450974,
    "type": "outdoor-pool",
    "ward": "St. Vital"
  },
  {
    "name": "Beryl Watts Park Wading Pool",
    "lat": 49.95073295524996,
    "lon": -97.11750346188441,
    "type": "wading-pool",
    "ward": "Mynarski"
  },
  {
    "name": "Happyland Wading Pool",
    "lat": 49.88173781975416,
    "lon": -97.10168184370126,
    "type": "wading-pool",
    "ward": "St. Boniface"
  },
  {
    "name": "Magnus Eliason Recreation Centre Wading Pool",
    "lat": 49.89164245760756,
    "lon": -97.15641848649322,
    "type": "wading-pool",
    "ward": "Daniel McIntyre",
    "syntheticClosureDateString": "2023-07-01 23:00:00"
  },
  {
    "name": "William Whyte School Wading Pool",
    "lat": 49.91770306265705,
    "lon": -97.14361524693749,
    "type": "wading-pool",
    "ward": "Mynarski",
    "syntheticClosureDateString": "2022-07-01 23:00:00"
  },
  {
    "name": "Valour Community Centre - Isaac Brock site Wading Pool",
    "lat": 49.88826043383068,
    "lon": -97.1867802825869,
    "type": "wading-pool",
    "ward": "Daniel McIntyre"
  },
  {
    "name": "St. Charles Park Wading Pool",
    "lat": 49.88867771729147,
    "lon": -97.31340212536873,
    "type": "wading-pool",
    "ward": "St. James"
  },
  {
    "name": "John Yuzyk Park  Wading Pool",
    "lat": 49.93488787810326,
    "lon": -97.15981211838822,
    "type": "wading-pool",
    "ward": "Mynarski",
    "syntheticClosureDateString": "2023-07-01 23:00:00"
  },
  {
    "name": "Sturgeon Heights Community Centre Wading Pool",
    "lat": 49.87630128516083,
    "lon": -97.25844535184824,
    "type": "wading-pool",
    "ward": "St. James"
  },
  {
    "name": "Dakota Park Wading Pool",
    "lat": 49.81872007721585,
    "lon": -97.10174351679566,
    "type": "wading-pool",
    "ward": "St. Norbert - Seine River"
  },
  {
    "name": "Boyd Park Wading Pool",
    "lat": 49.928919085841216,
    "lon": -97.16366035246422,
    "type": "wading-pool",
    "ward": "Point Douglas",
    "syntheticClosureDateString": "2020-07-01 23:00:00"
  },
  {
    "name": "Elmwood Park Wading Pool",
    "lat": 49.91816479215255,
    "lon": -97.11354812774319,
    "type": "wading-pool",
    "ward": "Elmwood - East Kildonan",
    "syntheticClosureDateString": "2023-07-01 23:00:00"
  },
  {
    "name": "Clara Hughes Park Wading Pool",
    "lat": 49.93196927936996,
    "lon": -97.1326573861011,
    "type": "wading-pool",
    "ward": "Mynarski",
    "syntheticClosureDateString": "2020-07-01 23:00:00"
  },
  {
    "name": "McKittrick Park Wading Pool",
    "lat": 49.85704506421516,
    "lon": -97.14544274777957,
    "type": "wading-pool",
    "ward": "Fort Rouge - East Fort Garry",
    "syntheticClosureDateString": "2021-07-01 23:00:00"
  },
  {
    "name": "Lomond Park Wading Pool",
    "lat": 49.85913799495187,
    "lon": -97.0603650465931,
    "type": "wading-pool",
    "ward": "St. Boniface",
    "syntheticClosureDateString": "2021-07-01 23:00:00"
  },
  {
    "name": "Norwood Community Centre Wading Pool",
    "lat": 49.87912632696142,
    "lon": -97.1291197128972,
    "type": "wading-pool",
    "ward": "St. Boniface"
  },
  {
    "name": "Robert A Steen Memorial Community Centre Wading Pool",
    "lat": 49.87714063094603,
    "lon": -97.17282263706062,
    "type": "wading-pool",
    "ward": "Daniel McIntyre",
    "syntheticClosureDateString": "2021-07-01 23:00:00"
  },
  {
    "name": "Braeside Park Wading Pool",
    "lat": 49.9105690648001,
    "lon": -97.07154403205492,
    "type": "wading-pool",
    "ward": "Elmwood - East Kildonan",
    "syntheticClosureDateString": "2020-07-01 23:00:00"
  },
  {
    "name": "Machray Park Wading Pool",
    "lat": 49.92462544770564,
    "lon": -97.13721176369974,
    "type": "wading-pool",
    "ward": "Mynarski",
    "syntheticClosureDateString": "2023-07-01 23:00:00"
  },
  {
    "name": "Earl Grey Community Centre Wading Pool",
    "lat": 49.86689679989561,
    "lon": -97.15084685552841,
    "type": "wading-pool",
    "ward": "Fort Rouge - East Fort Garry",
    "syntheticClosureDateString": "2020-07-01 23:00:00"
  },
  {
    "name": "Ducharme Park Wading Pool",
    "lat": 49.85385718016455,
    "lon": -97.09860539219756,
    "type": "wading-pool",
    "ward": "St. Vital"
  },
  {
    "name": "Victor Valde Park Wading Pool",
    "lat": 49.884537030007564,
    "lon": -97.00090865604233,
    "type": "wading-pool",
    "ward": "Transcona"
  },
  {
    "name": "Michaëlle Jean Park (Norquay Community Centre) Wading Pool",
    "lat": 49.90989299748023,
    "lon": -97.1265874784302,
    "type": "wading-pool",
    "ward": "Mynarski",
    "syntheticClosureDateString": "2022-07-01 23:00:00"
  },
  {
    "name": "Elmwood Winter Club Wading Pool",
    "lat": 49.909491488253686,
    "lon": -97.11354774658297,
    "type": "wading-pool",
    "ward": "Elmwood - East Kildonan"
  },
  {
    "name": "Shaughnessy Park Wading Pool",
    "lat": 49.93476351549268,
    "lon": -97.1888054680931,
    "type": "wading-pool",
    "ward": "Point Douglas",
    "syntheticClosureDateString": "2020-07-01 23:00:00"
  },
  {
    "name": "Bronx Park Community Centre Wading Pool",
    "lat": 49.927009183196986,
    "lon": -97.10528983688295,
    "type": "wading-pool",
    "ward": "North Kildonan"
  },
  {
    "name": "Valour Community Centre - Clifton site Wading Pool",
    "lat": 49.90164925165612,
    "lon": -97.18959968793219,
    "type": "wading-pool",
    "ward": "Daniel McIntyre",
    "syntheticClosureDateString": "2021-07-01 23:00:00"
  },
  {
    "name": "Vermillion Park Wading Pool",
    "lat": 49.85300365564019,
    "lon": -97.06564328446673,
    "type": "wading-pool",
    "ward": "St. Boniface"
  },
  {
    "name": "Southdale Community Centre Wading Pool",
    "lat": 49.84543597930898,
    "lon": -97.076612491441,
    "type": "wading-pool",
    "ward": "St. Boniface"
  },
  {
    "name": "Aberdeen Recreation Centre Wading Pool",
    "lat": 49.913582524194034,
    "lon": -97.14446319589916,
    "type": "wading-pool",
    "ward": "Mynarski",
    "syntheticClosureDateString": "2023-07-01 23:00:00"
  },
  {
    "name": "Winakwa Community Centre Wading Pool",
    "lat": 49.86325756904041,
    "lon": -97.07501011172238,
    "type": "wading-pool",
    "ward": "St. Boniface"
  },
  {
    "name": "Riverview Community Centre Wading Pool",
    "lat": 49.86507696149414,
    "lon": -97.11857867065396,
    "type": "wading-pool",
    "ward": "Fort Rouge - East Fort Garry",
    "syntheticClosureDateString": "2022-07-01 23:00:00"
  },
  {
    "name": "Lions Wading Pool",
    "lat": 49.840904989927765,
    "lon": -97.14991174320456,
    "type": "wading-pool",
    "ward": "Fort Rouge - East Fort Garry"
  },
  {
    "name": "Home Playground Wading Pool",
    "lat": 49.896546995523536,
    "lon": -97.16677897786002,
    "type": "wading-pool",
    "ward": "Daniel McIntyre",
    "syntheticClosureDateString": "2021-07-01 23:00:00"
  },
  {
    "name": "King Edward Park Wading Pool",
    "lat": 49.90621756467926,
    "lon": -97.09020205746383,
    "type": "wading-pool",
    "ward": "Elmwood - East Kildonan",
    "syntheticClosureDateString": "2022-07-01 23:00:00"
  },
  {
    "name": "Berkshire Park Wading Pool",
    "lat": 49.8723639655066,
    "lon": -97.08949896745216,
    "type": "wading-pool",
    "ward": "St. Boniface"
  },
  {
    "name": "Walsall Park Wading Pool",
    "lat": 49.93395800079289,
    "lon": -97.21195295291763,
    "type": "wading-pool",
    "ward": "Point Douglas",
    "syntheticClosureDateString": "2022-07-01 23:00:00"
  },
  {
    "name": "Broadway Park Wading Pool",
    "lat": 49.88388014154437,
    "lon": -97.155216173433,
    "type": "wading-pool",
    "ward": "Fort Rouge - East Fort Garry",
    "syntheticClosureDateString": "2023-07-01 23:00:00"
  },
  {
    "name": "Weston Park Wading Pool",
    "lat": 49.92069877447578,
    "lon": -97.19000984762071,
    "type": "wading-pool",
    "ward": "Point Douglas",
    "syntheticClosureDateString": "2020-07-01 23:00:00"
  },
  {
    "name": "Central Corydon CC- Sir John Franklin site",
    "lat": 49.86586583750233,
    "lon": -97.19654030211801,
    "type": "wading-pool",
    "ward": "River Heights - Fort Garry",
    "syntheticClosureDateString": "2021-07-01 23:00:00"
  },
  {
    "name": "Turtle Island Recreation Centre Wading Pool",
    "lat": 49.91044922741412,
    "lon": -97.13607006591653,
    "type": "wading-pool",
    "ward": "Mynarski",
    "syntheticClosureDateString": "2021-07-01 23:00:00"
  },
  {
    "name": "Kapyong Park Wading Pool",
    "lat": 49.883946918160994,
    "lon": -97.22240163602835,
    "type": "wading-pool",
    "ward": "St. James",
    "syntheticClosureDateString": "2020-07-01 23:00:00"
  },
  {
    "name": "Pritchard Park Wading Pool",
    "lat": 49.91426116213934,
    "lon": -97.13600704896913,
    "type": "wading-pool",
    "ward": "Mynarski",
    "syntheticClosureDateString": "2020-07-01 23:00:00"
  },
  {
    "name": "Lizzie Park Wading Pool",
    "lat": 49.90378901584974,
    "lon": -97.14172903462955,
    "type": "wading-pool",
    "ward": "Point Douglas",
    "syntheticClosureDateString": "2021-07-01 23:00:00"
  },
  {
    "name": "Tomlinson Park Wading Pool",
    "lat": 49.9194363743172,
    "lon": -97.06013723951537,
    "type": "wading-pool",
    "ward": "Elmwood - East Kildonan"
  },
  {
    "name": "Central Corydon Community Centre- Crescentwood Site Wading Pool",
    "lat": 49.864545306039886,
    "lon": -97.17091854975209,
    "type": "wading-pool",
    "ward": "River Heights - Fort Garry",
    "syntheticClosureDateString": "2023-07-01 23:00:00"
  },
  {
    "name": "Valour Community Centre - Orioles site Wading Pool",
    "lat": 49.89128730815621,
    "lon": -97.17091565373795,
    "type": "wading-pool",
    "ward": "Daniel McIntyre",
    "syntheticClosureDateString": "2022-07-01 23:00:00"
  },
  {
    "name": "Northwood CC: Frank Whyte site Wading Pool",
    "lat": 49.938445752499895,
    "lon": -97.16689472109658,
    "type": "wading-pool",
    "ward": "Point Douglas"
  },
  {
    "name": "Tyndall Park School Wading Pool",
    "lat": 49.93730491610665,
    "lon": -97.20449300455282,
    "type": "wading-pool",
    "ward": "Point Douglas"
  },
  {
    "name": "T R Hodgeson Park Wading Pool",
    "lat": 49.86828802562749,
    "lon": -97.20374901037702,
    "type": "wading-pool",
    "ward": "River Heights - Fort Garry"
  },
  {
    "name": "John Steel Park Wading Pool",
    "lat": 49.87281197105547,
    "lon": -97.29452296565401,
    "type": "wading-pool",
    "ward": "Charleswood - Tuxedo - Westwood"
  },
  {
    "name": "William Osler Park Wading Pool",
    "lat": 49.85427379268317,
    "lon": -97.19002139859418,
    "type": "wading-pool",
    "ward": "River Heights - Fort Garry",
    "syntheticClosureDateString": "2022-07-01 23:00:00"
  },
  {
    "name": "Luxton Community Centre Wading Pool",
    "lat": 49.92483937709672,
    "lon": -97.11874540771902,
    "type": "wading-pool",
    "ward": "Mynarski",
    "syntheticClosureDateString": "2023-07-01 23:00:00"
  },
  {
    "name": "Marjorie Park Wading Pool",
    "lat": 49.88084100258067,
    "lon": -97.21322998870988,
    "type": "wading-pool",
    "ward": "St. James",
    "syntheticClosureDateString": "2020-07-01 23:00:00"
  },
  {
    "name": "Strathcona Recreation Centre Wading Pool",
    "lat": 49.92030919253891,
    "lon": -97.14795913438404,
    "type": "wading-pool",
    "ward": "Mynarski"
  },
  {
    "name": "River Osborne Wading Pool",
    "lat": 49.87455211089644,
    "lon": -97.14326392063467,
    "type": "wading-pool",
    "ward": "Fort Rouge - East Fort Garry",
    "syntheticClosureDateString": "2021-07-01 23:00:00"
  },
  {
    "name": "Westdale Wading Pool",
    "lat": 49.86133850189606,
    "lon": -97.31535536483725,
    "type": "wading-pool",
    "ward": "Charleswood - Tuxedo - Westwood"
  },
  {
    "name": "Central Park Wading Pool",
    "lat": 49.89701594373563,
    "lon": -97.14927363338634,
    "type": "wading-pool",
    "ward": "Daniel McIntyre",
    "syntheticClosureDateString": "2022-07-01 23:00:00"
  },
  {
    "name": "East End Cultural & Leisure Centre Wading Pool",
    "lat": 49.913241920786,
    "lon": -97.09817440574714,
    "type": "wading-pool",
    "ward": "Elmwood - East Kildonan"
  },
  {
    "name": "Cordova Park Wading Pool",
    "lat": 49.86567585476028,
    "lon": -97.1892063825687,
    "type": "wading-pool",
    "ward": "River Heights - Fort Garry",
    "syntheticClosureDateString": "2023-07-01 23:00:00"
  },
  {
    "name": "Morse Place Community Centre Wading Pool",
    "lat": 49.91278622150586,
    "lon": -97.08422364852079,
    "type": "wading-pool",
    "ward": "Elmwood - East Kildonan",
    "syntheticClosureDateString": "2021-07-01 23:00:00"
  },
  {
    "name": "Pascoe Park Wading Pool",
    "lat": 49.91471257813159,
    "lon": -97.18319533591436,
    "type": "wading-pool",
    "ward": "Point Douglas"
  },
  {
    "name": "West Kildonan Memorial Community Centre Wading Pool",
    "lat": 49.93714558562278,
    "lon": -97.12578695617155,
    "type": "wading-pool",
    "ward": "Mynarski"
  },
  {
    "name": "Champlain Community Centre Wading Pool",
    "lat": 49.87551700861631,
    "lon": -97.11423843208637,
    "type": "wading-pool",
    "ward": "St. Boniface"
  },
  {
    "name": "Burton Cummings Community Centre Wading Pool",
    "lat": 49.90624597531002,
    "lon": -97.16671896863652,
    "type": "wading-pool",
    "ward": "Point Douglas",
    "syntheticClosureDateString": "2022-07-01 23:00:00"
  },
  {
    "name": "Marcy Beaucage Park Wading Pool",
    "lat": 49.854076340026104,
    "lon": -97.28853656921902,
    "type": "wading-pool",
    "ward": "Charleswood - Tuxedo - Westwood"
  },
  {
    "name": "Rotary Centenary Park Wading Pool",
    "lat": 49.898739975419524,
    "lon": -97.02470305088318,
    "type": "wading-pool",
    "ward": "Transcona"
  },
  {
    "name": "Northwood Community Centre Wading Pool",
    "lat": 49.93037722717319,
    "lon": -97.17854066813018,
    "type": "wading-pool",
    "ward": "Point Douglas"
  },
  {
    "name": "Harrow Park Wading Pool",
    "lat": 49.8637229876301,
    "lon": -97.16202898759181,
    "type": "wading-pool",
    "ward": "River Heights - Fort Garry"
  },
  {
    "name": "St. John’s Park Wading Pool",
    "lat": 49.91918178225654,
    "lon": -97.12649501785228,
    "type": "wading-pool",
    "ward": "Mynarski"
  },
  {
    "name": "Jacob Penner Park Wading Pool",
    "lat": 49.90157376828667,
    "lon": -97.16151200469477,
    "type": "wading-pool",
    "ward": "Daniel McIntyre",
    "syntheticClosureDateString": "2020-07-01 23:00:00"
  },
  {
    "name": "Dufferin Park Wading Pool",
    "lat": 49.906926994672354,
    "lon": -97.15130204250767,
    "type": "wading-pool",
    "ward": "Point Douglas"
  },
  {
    "name": "McFadyen Park Wading Pool",
    "lat": 49.8836656233804,
    "lon": -97.14194385134039,
    "type": "wading-pool",
    "ward": "Fort Rouge - East Fort Garry"
  },
  {
    "name": "Pacific Dee Park Wading Pool",
    "lat": 49.921698843502774,
    "lon": -97.1996784705046,
    "type": "wading-pool",
    "ward": "Point Douglas"
  },
  {
    "name": "Bruce Park Wading Pool",
    "lat": 49.87726018699298,
    "lon": -97.22519233596753,
    "type": "wading-pool",
    "ward": "St. James"
  },
  {
    "name": "Vimy Ridge Memorial Park Wading Pool",
    "lat": 49.88436654344726,
    "lon": -97.16795472900527,
    "type": "wading-pool",
    "ward": "Daniel McIntyre"
  },
  {
    "name": "Sargent Park Wading Pool",
    "lat": 49.899099011300535,
    "lon": -97.17896766324115,
    "type": "wading-pool",
    "ward": "Daniel McIntyre"
  },
  {
    "name": "Keenleyside Park Wading Pool",
    "lat": 49.906834631709835,
    "lon": -97.07215535167362,
    "type": "wading-pool",
    "ward": "Elmwood - East Kildonan"
  },
  {
    "name": "Centennial Park Wading Pool",
    "lat": 49.924155804671216,
    "lon": -97.08176607237111,
    "type": "wading-pool",
    "ward": "Elmwood - East Kildonan"
  },
  {
    "name": "King Edward and Ness Playground Wading Pool",
    "lat": 49.88416598549612,
    "lon": -97.20899597001494,
    "type": "wading-pool",
    "ward": "St. James"
  },
  {
    "name": "John M King School Wading Pool",
    "lat": 49.89394564108604,
    "lon": -97.16101512122773,
    "type": "wading-pool",
    "ward": "Daniel McIntyre"
  },
  {
    "name": "Montrose Park Wading Pool",
    "lat": 49.85916499794158,
    "lon": -97.18019995144198,
    "type": "wading-pool",
    "ward": "River Heights - Fort Garry"
  },
  {
    "name": "Bertrand Arena",
    "lat": 49.8835250439414,
    "lon": -97.1146040094391,
    "type": "arena",
    "ward": "St. Boniface"
  },
  {
    "name": "Century Arena",
    "lat": 49.831510962659806,
    "lon": -97.1688990321022,
    "type": "arena",
    "ward": "River Heights - Fort Garry"
  },
  {
    "name": "Richmond  Kings Arena",
    "lat": 49.799011966121284,
    "lon": -97.13663095662025,
    "type": "arena",
    "ward": "St. Norbert - Seine River"
  },
  {
    "name": "Gateway Recreation Centre Arena",
    "lat": 49.94523191780285,
    "lon": -97.04763390911855,
    "type": "arena",
    "ward": "North Kildonan"
  },
  {
    "name": "Seven Oaks Arena",
    "lat": 49.94839120098217,
    "lon": -97.1388169909093,
    "type": "arena",
    "ward": "Old Kildonan"
  },
  {
    "name": "Kinsmen Allard Arena",
    "lat": 49.87835932465351,
    "lon": -97.30434333485313,
    "type": "arena",
    "ward": "Charleswood - Tuxedo - Westwood"
  },
  {
    "name": "River Heights Community Centre Arena",
    "lat": 49.865400007719046,
    "lon": -97.18163396669881,
    "type": "arena",
    "ward": "River Heights - Fort Garry"
  },
  {
    "name": "St. James Civic Centre Arena",
    "lat": 49.886496984794036,
    "lon": -97.23425319081282,
    "type": "arena",
    "ward": "St. James"
  },
  {
    "name": "Billy Mosienko Arena",
    "lat": 49.934731018809195,
    "lon": -97.19447705368107,
    "type": "arena",
    "ward": "Point Douglas"
  },
  {
    "name": "St. Norbert  Arena",
    "lat": 49.76813220942469,
    "lon": -97.15421637436859,
    "type": "arena",
    "ward": "St. Norbert - Seine River"
  },
  {
    "name": "West Kildonan Memorial Community Centre Arena",
    "lat": 49.93725625949393,
    "lon": -97.12645275235353,
    "type": "arena",
    "ward": "Mynarski"
  },
  {
    "name": "River East Arena",
    "lat": 49.94397499516448,
    "lon": -97.0770050020946,
    "type": "arena",
    "ward": "North Kildonan"
  },
  {
    "name": "Charles A. Barbour Arena",
    "lat": 49.855373981950564,
    "lon": -97.16879703938869,
    "type": "arena",
    "ward": "River Heights - Fort Garry"
  },
  {
    "name": "Jonathon Toews Sportplex",
    "lat": 49.81925820676075,
    "lon": -97.10165378770068,
    "type": "arena",
    "ward": "St. Norbert - Seine River"
  },
  {
    "name": "Terry Sawchuk Arena",
    "lat": 49.91764800065462,
    "lon": -97.0708419767021,
    "type": "arena",
    "notes": "already closed due to extensive mould; proposed budget means it never reopens",
    "ward": "Elmwood - East Kildonan"
  },
  {
    "name": "Glenwood Community Centre Arena",
    "lat": 49.86578695897699,
    "lon": -97.10787701853803,
    "type": "arena",
    "ward": "St. Vital"
  },
  {
    "name": "Pioneer Arena",
    "lat": 49.91019802803041,
    "lon": -97.15747900752979,
    "type": "arena",
    "ward": "Point Douglas"
  },
  {
    "name": "Sam Southern Arena",
    "lat": 49.86350599262236,
    "lon": -97.13549987481032,
    "type": "arena",
    "ward": "Fort Rouge - East Fort Garry"
  },
  {
    "name": "Maples Multiplex Arena",
    "lat": 49.95354300265174,
    "lon": -97.1763679539023,
    "type": "arena",
    "ward": "Old Kildonan"
  },
  {
    "name": "Eric Coy Arena",
    "lat": 49.8575844641071,
    "lon": -97.27016379469632,
    "type": "arena",
    "ward": "Charleswood - Tuxedo - Westwood"
  },
  {
    "name": "Southdale Arena",
    "lat": 49.8458078138069,
    "lon": -97.07782424160075,
    "type": "arena",
    "ward": "St. Boniface"
  },
  {
    "name": "Notre Dame Recreation Centre Arena",
    "lat": 49.89107146317146,
    "lon": -97.11671346492723,
    "type": "arena",
    "ward": "St. Boniface"
  },
  {
    "name": "Keith Bodley Arena",
    "lat": 49.87578390173794,
    "lon": -97.30318596508486,
    "type": "arena",
    "ward": "Charleswood - Tuxedo - Westwood"
  },
  {
    "name": "Maginot Arena",
    "lat": 49.87268499533244,
    "lon": -97.08022298698845,
    "type": "arena",
    "ward": "St. Boniface"
  },
  {
    "name": "East End Arena & Community Club",
    "lat": 49.89466603589417,
    "lon": -96.99160195145335,
    "type": "arena",
    "ward": "Transcona"
  },
  {
    "name": "St. Vital Centennial Arena",
    "lat": 49.83314208206833,
    "lon": -97.09204904483501,
    "type": "arena",
    "ward": "St. Vital"
  },
  {
    "name": "Sargent Park Arena",
    "lat": 49.899344024420415,
    "lon": -97.18079795474522,
    "type": "arena",
    "ward": "Daniel McIntyre"
  },
  {
    "name": "Varsity View Sportsplex Arena",
    "lat": 49.843089760955046,
    "lon": -97.27079623376599,
    "type": "arena",
    "ward": "Charleswood - Tuxedo - Westwood"
  },
  {
    "name": "864 Marion St Fire Hall",
    "lat": 49.88156167867251,
    "lon": -97.08381913162806,
    "type": "fire-station",
    "ward": "St. Boniface"
  },
  {
    "name": "10 Allan Blye Dr Fire Hall",
    "lat": 49.96204271710916,
    "lon": -97.17313632724309,
    "type": "fire-station",
    "ward": "Old Kildonan"
  },
  {
    "name": "320 Whytewold Rd Fire Hall",
    "lat": 49.880002086296244,
    "lon": -97.25477020283276,
    "type": "fire-station",
    "ward": "St. James"
  },
  {
    "name": "1083 Autumnwood Dr Fire Hall",
    "lat": 49.861495289653256,
    "lon": -97.07764699330839,
    "type": "fire-station",
    "ward": "St. Boniface"
  },
  {
    "name": "337 Des Meurons St Fire Hall",
    "lat": 49.882997218823746,
    "lon": -97.11152886463857,
    "type": "fire-station",
    "ward": "St. Boniface"
  },
  {
    "name": "880 Dalhousie Dr Fire Hall",
    "lat": 49.78251714143837,
    "lon": -97.15597422807852,
    "type": "fire-station",
    "ward": "St. Norbert - Seine River"
  },
  {
    "name": "150 Osborne St Fire Hall",
    "lat": 49.877729730496846,
    "lon": -97.14379819520072,
    "type": "fire-station",
    "ward": "Fort Rouge - East Fort Garry"
  },
  {
    "name": "640 Kimberly Ave Fire Hall",
    "lat": 49.92084984981181,
    "lon": -97.08519082097182,
    "type": "fire-station",
    "ward": "Elmwood - East Kildonan"
  },
  {
    "name": "27 Sage Creek Blvd Fire and Paramedic Station",
    "lat": 49.83421839906742,
    "lon": -97.04794711599655,
    "type": "fire-paramedic-station",
    "ward": "St. Vital"
  },
  {
    "name": "701 Day St Fire and Paramedic Station",
    "lat": 49.898549240577445,
    "lon": -97.00313962010975,
    "type": "fire-paramedic-station",
    "ward": "Transcona"
  },
  {
    "name": "1780 Taylor Ave Fire and Paramedic Station",
    "lat": 49.84975717072603,
    "lon": -97.20187262781708,
    "type": "fire-paramedic-station",
    "ward": "River Heights - Fort Garry"
  },
  {
    "name": "65 Ellen St Fire and Paramedic Station",
    "lat": 49.89864574792429,
    "lon": -97.1464472485711,
    "type": "fire-paramedic-station",
    "ward": "Point Douglas"
  },
  {
    "name": "845 Sargent Ave Fire and Paramedic Station",
    "lat": 49.897135626372425,
    "lon": -97.17088425328033,
    "type": "fire-paramedic-station",
    "ward": "Daniel McIntyre"
  },
  {
    "name": "5000 Roblin Blvd Fire and Paramedic Station",
    "lat": 49.85760021598967,
    "lon": -97.28440326862777,
    "type": "fire-paramedic-station",
    "ward": "Charleswood - Tuxedo - Westwood"
  },
  {
    "name": "1001 McGregor St Fire and Paramedic Station",
    "lat": 49.94521661269513,
    "lon": -97.12635921429619,
    "type": "fire-paramedic-station",
    "ward": "Mynarski"
  },
  {
    "name": "1057 St Mary's Rd Fire and Paramedic Station",
    "lat": 49.837587800259186,
    "lon": -97.11179609268567,
    "type": "fire-paramedic-station",
    "ward": "St. Vital"
  },
  {
    "name": "1354 Border St Fire and Paramedic Station",
    "lat": 49.9140119966793,
    "lon": -97.20204930247459,
    "type": "fire-paramedic-station",
    "ward": "St. James"
  },
  {
    "name": "55 Watt St Fire and Paramedic Station",
    "lat": 49.904003976695044,
    "lon": -97.10479855578124,
    "type": "fire-paramedic-station",
    "ward": "Elmwood - East Kildonan"
  },
  {
    "name": "1525 Dakota St Fire and Paramedic Station",
    "lat": 49.810700650464284,
    "lon": -97.09282133756851,
    "type": "fire-paramedic-station",
    "ward": "St. Norbert - Seine River"
  },
  {
    "name": "799 Lilac St Fire and Paramedic Station",
    "lat": 49.856420787468004,
    "lon": -97.14722976617539,
    "type": "fire-paramedic-station",
    "ward": "Fort Rouge - East Fort Garry"
  },
  {
    "name": "1705 Portage Ave Fire and Paramedic Station",
    "lat": 49.880007570559265,
    "lon": -97.20598836234245,
    "type": "fire-paramedic-station",
    "ward": "St. James"
  },
  {
    "name": "525 Banting Dr Fire and Paramedic Station",
    "lat": 49.87991762773618,
    "lon": -97.28807537620854,
    "type": "fire-paramedic-station",
    "ward": "Charleswood - Tuxedo - Westwood"
  },
  {
    "name": "1665 Rothesay St Fire and Paramedic Station",
    "lat": 49.94999617420838,
    "lon": -97.06788635813281,
    "type": "fire-paramedic-station",
    "ward": "North Kildonan"
  },
  {
    "name": "1501 Church Ave Fire and Paramedic Station",
    "lat": 49.9397962378579,
    "lon": -97.17952160159639,
    "type": "fire-paramedic-station",
    "ward": "Point Douglas"
  },
  {
    "name": "1567 Waverley St Fire and Paramedic Station",
    "lat": 49.82031003634898,
    "lon": -97.18020204718627,
    "type": "fire-paramedic-station",
    "ward": "Waverley West"
  },
  {
    "name": "603 Redwood Ave Fire and Paramedic Station",
    "lat": 49.9222043921713,
    "lon": -97.14526729552107,
    "type": "fire-paramedic-station",
    "ward": "Mynarski"
  },
  {
    "name": "1446 Regent Ave W Fire and Paramedic Station",
    "lat": 49.894809910826034,
    "lon": -97.04687946342477,
    "type": "fire-paramedic-station",
    "ward": "Transcona"
  }
]